City_ID,City,Lat,Lng,Max Temp,Humidity,Cloudiness,Wind Speed,Country,Date
0,yellowknife,62.456,-114.3525,277.35,80,77,4.92,CA,1686578888
1,ola,59.5833,151.2833,279.03,95,100,2.79,RU,1686578888
2,blackmans bay,-43.0167,147.3167,283.22,84,99,2.74,AU,1686578600
3,edinburgh of the seven seas,-37.0676,-12.3116,289.86,91,100,15.32,SH,1686578889
4,mariehamn,60.0973,19.9348,290.07,45,0,6.17,AX,1686578889
5,shenkursk,62.1091,42.896,295.16,37,59,3.38,RU,1686578889
6,vorgashor,67.5833,63.95,281.67,40,87,6.83,RU,1686578890
7,iqaluit,63.7506,-68.5145,274.0,80,75,6.71,CA,1686578581
8,villa regina,-39.1,-67.0667,280.35,36,0,2.34,AR,1686578891
9,adamstown,-25.066,-130.1015,293.37,62,50,4.12,PN,1686578741
10,port alfred,-33.5906,26.891,290.47,68,68,3.58,ZA,1686578795
11,lisala,2.15,21.5167,302.99,57,99,1.66,CD,1686578893
12,lebu,-37.6167,-73.65,280.77,78,4,7.75,CL,1686578760
13,ribeira grande,38.5167,-28.7,293.37,100,75,5.14,PT,1686578765
14,grytviken,-54.2811,-36.5092,272.52,86,100,2.67,GS,1686578760
15,waitangi,-43.9535,-176.5597,284.16,74,100,9.42,NZ,1686578894
16,ushuaia,-54.8,-68.3,277.96,87,75,13.38,AR,1686578458
17,baijiantan,45.6333,85.1833,301.8,18,0,9.26,CN,1686578895
18,leava,-14.3,-178.1667,300.27,80,90,7.89,WF,1686578897
19,buala,-8.145,159.5921,299.82,85,62,1.81,SB,1686578897
20,kudahuvadhoo,2.6708,72.8944,302.09,78,97,7.62,MV,1686578898
21,invercargill,-46.4,168.35,283.15,91,86,3.78,NZ,1686578754
22,port saint john's,-31.6229,29.5448,294.12,49,69,4.15,ZA,1686578899
23,togur,58.3631,82.8265,286.96,65,25,2.04,RU,1686578899
24,queenstown,-31.8976,26.8753,286.51,46,27,9.15,ZA,1686578900
25,ujae,8.9322,165.7642,301.76,78,65,9.0,MH,1686578900
26,tazovsky,67.4667,78.7,276.0,93,100,5.91,RU,1686578901
27,portland,45.5234,-122.6762,290.61,85,20,1.54,US,1686578650
28,ancud,-41.8697,-73.8203,278.76,81,0,2.21,CL,1686578902
29,galle,6.0367,80.217,300.42,86,69,6.34,LK,1686578903
30,petropavlovsk-kamchatsky,53.0452,158.6483,283.48,71,0,1.0,RU,1686578799
31,hithadhoo,-0.6,73.0833,301.91,73,100,2.86,MV,1686578903
32,geraldton,-28.7667,114.6,283.38,87,0,3.6,AU,1686578904
33,taguatinga,-12.3857,-46.5711,306.19,28,0,2.92,BR,1686578904
34,luganville,-15.5333,167.1667,297.54,88,91,3.33,VU,1686578905
35,hermanus,-34.4187,19.2345,288.04,72,78,10.79,ZA,1686578708
36,starobin,52.7267,27.4606,282.35,92,100,5.14,BY,1686578905
37,port-aux-francais,-49.35,70.2167,279.12,90,100,12.49,TF,1686578750
38,bethel,41.3712,-73.414,296.73,77,75,3.6,US,1686578906
39,hawaiian paradise park,19.5933,-154.9731,294.28,89,0,1.54,US,1686578819
40,newman,37.3138,-121.0208,288.84,82,50,0.45,US,1686578907
41,padang,-0.9492,100.3543,300.18,88,86,2.14,ID,1686578630
42,nova xavantina,-14.6667,-52.35,304.93,38,1,1.71,BR,1686578908
43,kingston,17.997,-76.7936,303.28,76,20,7.2,JM,1686578486
44,puerto natales,-51.7236,-72.4875,278.4,60,40,4.12,CL,1686578750
45,ust-nera,64.5667,143.2,287.32,91,100,2.9,RU,1686578909
46,hamilton,39.1834,-84.5333,290.92,91,100,7.72,US,1686578531
47,ilulissat,69.2167,-51.1,274.16,93,100,4.63,GL,1686578819
48,znamenskoye,57.1281,73.8282,288.1,47,23,2.88,RU,1686578909
49,kapuskasing,49.4169,-82.4331,290.25,53,100,3.79,CA,1686578910
50,kodiak,57.79,-152.4072,276.88,87,0,0.0,US,1686578762
51,abadeh,31.1608,52.6506,303.34,12,69,5.41,IR,1686578910
52,albany,42.6001,-73.9662,296.44,76,100,1.79,US,1686578226
53,tiksi,71.6872,128.8694,272.76,85,50,2.61,RU,1686578815
54,wailua homesteads,22.0669,-159.378,295.79,91,63,0.45,US,1686578791
55,fort bragg,35.139,-79.006,297.15,91,100,6.17,US,1686578911
56,bamboo flat,11.7,92.7167,300.84,84,99,7.95,IN,1686578912
57,adrar,20.5022,-10.0711,312.19,11,11,5.14,MR,1686578912
58,christchurch,-43.5333,172.6333,278.68,94,80,1.03,NZ,1686578900
59,fale old settlement,-9.3852,-171.2468,301.57,77,66,6.51,TK,1686578803
60,al jawf,29.5,38.75,306.75,16,0,2.43,SA,1686578913
61,trincomalee,8.5711,81.2335,303.08,71,99,8.14,LK,1686578914
62,lanzhou,36.0564,103.7922,294.91,42,42,2.03,CN,1686578914
63,ridder,50.355,83.5133,289.39,71,0,1.57,KZ,1686578914
64,avarua,-21.2078,-159.775,296.18,94,100,1.54,CK,1686578812
65,kargasok,59.0556,80.8572,287.9,42,45,5.95,RU,1686578915
66,arkalyk,50.2486,66.9114,302.6,18,79,3.04,KZ,1686578915
67,port mathurin,-19.6833,63.4167,298.11,72,6,8.68,MU,1686578468
68,kavaratti,10.5669,72.642,302.65,77,100,10.03,IN,1686578729
69,dudinka,69.4058,86.1778,286.71,50,56,6.32,RU,1686578810
70,tura,25.5198,90.2201,297.58,91,3,2.51,IN,1686578875
71,lufilufi,-13.8745,-171.5986,300.41,80,42,6.72,WS,1686578917
72,kone,-21.0595,164.8658,291.63,76,0,1.75,NC,1686578917
73,bilibino,68.0546,166.4372,283.89,93,100,1.67,RU,1686578918
74,puerto ayora,-0.7393,-90.3518,301.13,87,100,4.92,EC,1686578814
75,jamestown,42.097,-79.2353,291.92,76,100,5.14,US,1686578707
76,pocos de caldas,-21.7878,-46.5614,294.49,48,0,1.81,BR,1686578751
77,gulf shores,30.246,-87.7008,303.92,62,96,2.24,US,1686578920
78,fada,9.5667,8.3,296.74,84,97,2.32,NG,1686578920
79,smithers,54.7804,-127.1743,288.79,59,100,0.56,CA,1686578920
80,west island,-12.1568,96.8225,300.14,78,84,9.78,CC,1686578758
81,talnakh,69.4865,88.3972,282.56,87,100,5.25,RU,1686578921
82,alofi,-19.0595,-169.9187,295.09,94,100,2.06,NU,1686578921
83,midvagur,62.0511,-7.1939,285.61,76,0,4.63,FO,1686578921
84,remire-montjoly,4.9167,-52.2667,302.17,74,40,2.06,GF,1686578922
85,kidal,18.4411,1.4078,313.17,21,13,4.92,ML,1686578922
86,glendale,33.5387,-112.186,297.02,42,0,5.14,US,1686578724
87,hakha,22.65,93.6167,290.1,92,67,1.06,MM,1686578923
88,vila franca do campo,37.7167,-25.4333,293.38,93,100,6.05,PT,1686578793
89,deschutes river woods,43.9915,-121.3584,288.94,69,0,0.89,US,1686578923
90,pimentel,-6.8367,-79.9342,297.31,69,0,7.2,PE,1686578923
91,robstown,27.7903,-97.6689,304.03,83,75,4.63,US,1686578924
92,kuah,6.3265,99.8432,301.53,72,74,3.09,MY,1686578924
93,bredasdorp,-34.5322,20.0403,286.67,71,67,9.24,ZA,1686578769
94,stanley,54.868,-1.6985,294.92,67,0,4.63,GB,1686578659
95,nar'yan-mar,67.6713,53.087,288.64,47,100,5.5,RU,1686578925
96,karratha,-20.7377,116.8463,294.9,37,1,2.79,AU,1686578808
97,cabo san lucas,22.8909,-109.9124,298.74,56,0,4.46,MX,1686578753
98,margaret river,-33.95,115.0667,288.37,71,48,5.1,AU,1686578775
99,bokhan,53.153,103.7714,287.58,96,100,0.54,RU,1686578925
100,taroudant,30.4703,-8.877,303.94,36,0,8.91,MA,1686578926
101,papatowai,-46.5619,169.4708,283.28,87,70,5.85,NZ,1686578758
102,bani walid,31.7566,13.9942,306.81,20,0,8.38,LY,1686578926
103,ronne,55.1009,14.7066,294.1,26,0,7.2,DK,1686578927
104,san antonio de pale,-1.4014,5.6325,298.01,86,100,3.69,GQ,1686578927
105,matoury,4.8483,-52.3317,302.13,74,40,2.06,GF,1686578927
106,aasiaat,68.7098,-52.8699,274.47,77,58,12.32,GL,1686578754
107,vilyuysk,63.7553,121.6247,277.69,65,7,2.28,RU,1686578928
108,whitehorse,60.7161,-135.0538,281.49,65,97,1.79,CA,1686578928
109,rocky mountain house,52.3668,-114.9188,285.21,87,40,2.06,CA,1686578637
110,jiazi,22.8779,116.067,300.48,84,100,2.88,CN,1686578928
111,longyearbyen,78.2186,15.6401,276.06,70,75,5.66,SJ,1686578505
112,arroyo seco,-33.1549,-60.5086,282.53,10,0,2.47,AR,1686578929
113,olonkinbyen,70.9221,-8.7187,274.21,84,32,3.8,SJ,1686578929
114,pangody,65.85,74.4859,275.01,97,100,8.79,RU,1686578929
115,minas de marcona,-15.2119,-75.1103,286.54,79,68,6.7,PE,1686578779
116,oistins,13.0667,-59.5333,301.71,73,56,8.3,BB,1686578930
117,midland,31.9974,-102.0779,300.82,70,0,2.57,US,1686578649
118,mukalla,14.5425,49.1242,308.95,54,100,7.37,YE,1686578930
119,college,64.8569,-147.8028,284.33,69,0,0.45,US,1686578808
120,swellendam,-34.0226,20.4417,287.22,68,100,6.13,ZA,1686578931
121,mao,39.8885,4.2658,299.46,65,20,3.09,ES,1686578931
122,sandnessjoen,66.0217,12.6316,290.44,83,75,7.72,NO,1686578932
123,fengrun,39.8333,118.1167,291.45,67,34,2.12,CN,1686578932
124,vila velha,-20.3297,-40.2925,302.12,74,0,5.14,BR,1686578932
125,udachny,66.4167,112.4,285.07,43,10,3.55,RU,1686578776
126,westport,41.1415,-73.3579,296.34,81,100,1.34,US,1686578638
127,mount gambier,-37.8333,140.7667,284.99,67,100,4.47,AU,1686578933
128,fisterra,42.9049,-9.2629,294.27,89,100,0.58,ES,1686578933
129,atafu village,-8.5421,-172.5159,301.98,75,30,5.96,TK,1686578805
130,saint-joseph,-21.3667,55.6167,296.36,82,31,2.7,RE,1686578934
131,anadyr,64.75,177.4833,280.43,75,0,3.0,RU,1686578934
132,douz,33.4663,9.0203,308.41,25,0,1.6,TN,1686578934
133,afaahiti,-17.75,-149.2833,295.08,68,91,7.77,PF,1686578807
134,solleftea,63.1667,17.2667,297.07,21,100,3.35,SE,1686578935
135,ananyiv,47.7201,29.9664,290.44,70,100,6.42,UA,1686578935
136,sault ste. marie,46.5168,-84.3333,284.31,84,100,2.57,CA,1686578740
137,ketchikan,55.3422,-131.6461,285.41,94,100,0.0,US,1686578936
138,isafjordur,66.0755,-23.124,287.17,47,20,5.66,IS,1686578777
139,cannonvale,-20.2833,148.7,294.81,86,18,4.42,AU,1686578937
140,lazaro cardenas,17.9583,-102.2,300.32,70,12,1.66,MX,1686578937
141,constitucion,-35.3333,-72.4167,279.28,71,3,3.03,CL,1686578937
142,hilo,19.7297,-155.09,296.27,87,0,3.13,US,1686578924
143,thompson,55.7435,-97.8558,289.24,77,75,2.06,CA,1686578701
144,champerico,14.3,-91.9167,301.84,76,94,2.19,GT,1686578938
145,piechowice,50.8496,15.5989,296.43,42,12,4.27,PL,1686578938
146,igarka,67.4667,86.5833,283.57,76,100,4.71,RU,1686578939
147,caleta de carquin,-11.0925,-77.6267,294.38,73,88,4.01,PE,1686578939
148,es castell,39.8795,4.2854,299.53,65,20,3.09,ES,1686578939
149,madang,-5.2246,145.7966,298.96,90,95,2.18,PG,1686578940
150,barakani,-12.1356,44.4317,299.04,68,34,2.71,KM,1686578817
151,flying fish cove,-10.4217,105.6791,298.97,88,100,6.17,CX,1686578757
152,manggar,-2.8833,108.2667,301.08,81,64,5.36,ID,1686578839
153,pyt-yakh,60.7499,72.8582,280.5,70,89,4.5,RU,1686578941
154,tolanaro,-25.0319,46.9987,299.19,69,20,6.17,MG,1686578764
155,nikolayevsk-on-amure,53.1406,140.73,281.84,96,100,0.87,RU,1686578941
156,tual,-5.6667,132.75,300.45,83,100,9.96,ID,1686578796
157,kolonia town,6.964,158.206,302.15,79,100,4.63,FM,1686578942
158,cill airne,52.05,-9.5167,293.18,68,100,2.57,IE,1686578942
159,touros,-5.1989,-35.4608,301.22,72,27,5.89,BR,1686578943
160,sukabumi,-6.9181,106.9267,294.87,97,57,0.72,ID,1686578943
161,namie,37.4833,141.0,294.66,93,100,0.83,JP,1686578943
162,vilyuchinsk,52.9306,158.4028,282.18,68,0,3.55,RU,1686578944
163,petropavlivka,48.4564,36.4367,292.97,70,100,6.36,UA,1686578944
164,belyy yar,53.6039,91.3903,289.09,77,0,2.0,RU,1686578944
165,badger,64.8,-147.5333,284.29,77,0,0.45,US,1686578765
166,iaciara,-14.0958,-46.6317,305.25,30,2,0.76,BR,1686578648
167,nova vicosa,-17.8919,-39.3719,300.35,62,1,3.52,BR,1686578855
168,utrik,11.2278,169.8474,300.75,79,79,9.37,MH,1686578783
169,altai,46.3722,96.2583,295.11,26,61,6.63,MN,1686578945
170,marshall,34.3834,-86.3333,294.31,88,100,2.57,US,1686578946
171,akureyri,65.6835,-18.0878,291.53,34,92,2.44,IS,1686578946
172,qaqortoq,60.7167,-46.0333,282.04,57,93,1.8,GL,1686578767
173,swakopmund,-22.6833,14.5333,289.81,78,8,1.34,NA,1686578947
174,kyaikto,17.3,97.0167,299.89,82,71,0.85,MM,1686578947
175,mugia,43.1041,-9.2179,294.35,90,99,0.79,ES,1686578947
176,vorkuta,67.5,64.0,281.91,40,88,7.0,RU,1686578947
177,constantia,44.1833,28.65,296.53,65,61,5.48,RO,1686578737
178,katsuura,35.1333,140.3,294.92,94,95,2.54,JP,1686578948
179,mount isa,-20.7333,139.5,285.02,62,100,0.0,AU,1686578949
180,gao,16.6362,1.637,311.29,27,53,4.2,ML,1686578949
181,namibe,-15.1961,12.1522,295.0,55,8,5.11,AO,1686578913
182,ust'-kut,56.7938,105.7672,284.36,58,99,3.59,RU,1686578950
183,saudarkrokur,65.7461,-19.6394,288.5,48,96,3.87,IS,1686578950
184,ayutla de los libres,16.9,-99.2167,302.03,63,77,0.87,MX,1686578950
185,saipan,15.1355,145.701,301.54,100,40,3.6,MP,1686578950
186,arraial do cabo,-22.9661,-42.0278,299.07,69,0,5.66,BR,1686578951
187,east london,-33.0153,27.9116,292.84,53,78,7.9,ZA,1686578951
188,ataq,14.5377,46.8319,309.79,10,77,6.14,YE,1686578951
189,aripuana,-9.1667,-60.6333,302.59,65,96,0.79,BR,1686578952
190,amos,48.5669,-78.1162,290.26,69,100,2.44,CA,1686578797
191,walvis bay,-22.9575,14.5053,289.87,63,0,8.69,NA,1686578952
192,xiaoweizhai,26.1903,107.5125,291.59,90,100,1.07,CN,1686578815
193,orchard homes,46.8633,-114.0484,289.23,94,75,0.45,US,1686578953
194,nikel,69.4128,30.222,292.25,28,91,9.7,RU,1686578953
195,acarau,-2.8856,-40.12,302.8,64,25,5.74,BR,1686578954
196,barranca,-10.75,-77.7667,294.06,74,100,3.51,PE,1686578954
197,tisaiyanvilai,8.3333,77.8833,302.98,62,97,6.57,IN,1686578954
198,kuanda,56.3161,116.0806,283.36,82,90,2.14,RU,1686578955
199,mount pearl,47.5166,-52.7813,279.34,94,100,2.24,CA,1686578955
200,nosy varika,-20.5833,48.5333,296.2,81,41,2.36,MG,1686578955
201,port hedland,-20.3167,118.5667,293.18,49,0,2.57,AU,1686578956
202,sitka,57.0531,-135.33,282.09,87,100,4.12,US,1686578954
203,reggane,26.7158,0.1714,316.77,5,0,5.44,DZ,1686578956
204,kesap,40.9164,38.5144,295.05,89,100,0.98,TR,1686578956
205,chimbarongo,-34.7,-71.05,274.11,69,50,1.64,CL,1686578957
206,susuman,62.7833,148.1667,288.89,63,100,2.13,RU,1686578756
207,mezhdurechenskiy,59.6,65.9333,287.57,37,96,3.04,RU,1686578957
208,savalou,7.9281,1.9756,305.65,44,73,2.23,BJ,1686578958
209,mejit,10.2753,170.8646,301.01,79,95,8.59,MH,1686578958
210,praia,14.9215,-23.5087,302.45,58,20,9.77,CV,1686578958
211,labytnangi,66.6572,66.4183,282.84,38,3,7.14,RU,1686578959
212,acapulco de juarez,16.8634,-99.8901,302.05,70,20,1.54,MX,1686578772
213,sinabang,2.4803,96.3801,300.67,77,44,1.39,ID,1686578959
214,hargeysa,9.56,44.065,303.54,33,100,3.5,SO,1686578960
215,mahibadhoo,3.7833,72.9667,302.03,78,60,7.42,MV,1686578960
216,bahua,25.85,80.6333,314.7,17,20,4.83,IN,1686578960
217,recani,31.2846,-4.2688,309.89,11,0,1.67,MA,1686578961
218,naracoorte,-36.9579,140.7383,284.49,68,100,5.31,AU,1686578961
219,port elizabeth,-33.918,25.5701,290.43,63,0,12.86,ZA,1686578702
220,sibiti,-3.6819,13.3499,299.67,69,88,1.37,CG,1686578962
221,tipton,52.5296,-2.0677,300.92,64,42,3.45,GB,1686578962
222,alice springs,-23.7,133.8833,284.94,50,1,0.0,AU,1686578963
223,rio preto da eva,-2.6994,-59.6997,303.83,61,0,1.99,BR,1686578963
224,alaghsas,17.0187,8.0168,312.16,22,0,3.07,NE,1686578964
225,caudete,38.7068,-0.9872,300.73,34,100,4.51,ES,1686578964
226,qarqaraly,49.4058,75.4742,294.02,33,13,4.38,KZ,1686578964
227,la passe,45.5549,-0.8967,296.31,78,100,3.38,FR,1686578965
228,yuzhno-kurilsk,44.0306,145.8556,284.59,99,46,4.58,RU,1686578965
229,pyin oo lwin,22.0333,96.4667,294.22,88,40,1.1,MM,1686578966
230,kiomboi,-4.2667,34.3667,300.08,27,53,2.47,TZ,1686578966
231,mthatha,-31.5889,28.7844,291.52,33,28,3.16,ZA,1686578967
232,dalandzadgad,43.5708,104.425,297.09,18,17,8.09,MN,1686578967
233,iskateley,67.6803,53.1512,288.52,47,100,5.47,RU,1686578967
234,humaita,-7.5061,-63.0208,302.47,69,100,0.76,BR,1686578967
235,saint-philippe,-21.3585,55.7679,296.92,82,45,2.52,RE,1686578817
236,al kharijah,25.4514,30.5464,314.22,13,0,6.94,EG,1686578968
237,mossel bay,-34.1831,22.146,288.03,67,64,11.73,ZA,1686578969
238,la'ie,21.6477,-157.9253,299.13,80,31,1.79,US,1686578969
239,salinopolis,-0.6136,-47.3561,302.76,68,2,5.6,BR,1686578969
240,krasnoural'sk,58.3638,60.0407,286.95,39,100,4.02,RU,1686578969
241,muynoq,43.7683,59.0214,302.08,25,0,8.59,UZ,1686578970
242,hasaki,35.7333,140.8333,293.83,96,100,3.29,JP,1686578763
243,colonia,50.9333,6.95,304.74,28,0,3.09,DE,1686578797
244,mili,6.0815,171.735,301.49,78,100,8.53,MH,1686578971
245,hiriyur,13.9456,76.6192,303.61,43,19,9.65,IN,1686578971
246,the pas,53.8251,-101.2541,293.71,58,68,2.89,CA,1686578971
247,ndele,8.4109,20.6473,301.63,64,94,2.53,CF,1686578972
248,peace river,56.2501,-117.286,287.4,67,92,1.27,CA,1686578933
249,prince rupert,54.3161,-130.3201,286.19,71,100,1.54,CA,1686578972
250,gurupi,-11.7292,-49.0686,305.97,32,0,3.41,BR,1686578833
251,gulnar,36.3415,33.3992,293.88,52,10,5.56,TR,1686578973
252,laojunmiao,39.8333,97.7333,295.71,19,57,8.14,CN,1686578973
253,crane,31.3974,-102.3501,301.69,48,0,3.66,US,1686578974
254,dzuunmod,48.2199,97.3744,289.26,60,73,1.57,MN,1686578974
255,beau vallon,-20.4189,57.6953,298.27,76,13,2.65,MU,1686578975
256,pisco,-13.7,-76.2167,293.18,73,23,4.12,PE,1686578975
257,inirida,3.8653,-67.9239,298.39,89,99,1.12,CO,1686578975
258,kapa'a,22.0752,-159.319,296.54,91,68,0.45,US,1686578976
259,new norfolk,-42.7826,147.0587,283.87,78,77,1.24,AU,1686578976
260,yarega,63.4354,53.5765,287.51,50,98,2.79,RU,1686578976
261,lichinga,-13.3128,35.2406,294.18,41,21,2.17,MZ,1686578977
262,georgetown,5.4112,100.3354,304.12,72,20,5.14,MY,1686578707
263,praia da vitoria,38.7333,-27.0667,292.21,95,100,9.41,PT,1686578977
264,uturoa,-16.7333,-151.4333,300.05,72,40,8.18,PF,1686578978
265,galdar,28.147,-15.6502,297.43,77,34,3.43,ES,1686578978
266,puerto baquerizo moreno,-0.9,-89.6,299.7,83,75,5.14,EC,1686578978
267,maintirano,-18.0667,44.0167,298.74,66,0,5.03,MG,1686578789
268,horta,38.5333,-28.6333,292.95,97,75,5.14,PT,1686578979
269,saskatoon,52.1168,-106.6345,294.14,51,29,3.51,CA,1686578954
270,ambovombe,-25.1667,46.0833,294.15,80,5,5.41,MG,1686578980
271,aioi,34.8036,134.4681,293.9,94,100,0.9,JP,1686578980
272,ajuchitlan del progreso,18.1519,-100.4835,302.24,56,66,0.07,MX,1686578980
273,jabor,5.921,169.6434,301.36,80,100,7.97,MH,1686578981
274,el calafate,-50.3408,-72.2768,274.04,70,80,4.63,AR,1686578981
275,cururupu,-1.8283,-44.8683,303.49,61,2,3.14,BR,1686578866
276,illizi,26.4833,8.4667,314.96,8,0,4.04,DZ,1686578981
277,yakeshi,49.2833,120.7333,289.72,64,15,0.78,CN,1686578759
278,mbala,-8.8402,31.3659,295.54,41,53,1.21,ZM,1686578982
279,pimenta bueno,-11.6725,-61.1936,301.31,71,35,1.57,BR,1686578806
280,bongaree,-27.0797,153.1586,291.05,82,17,2.0,AU,1686578983
281,bununu,9.8681,9.6628,306.15,40,87,0.39,NG,1686578984
282,san luis de la loma,17.2706,-100.8939,302.09,63,77,1.1,MX,1686578984
283,hadibu,12.65,54.0333,302.78,72,100,7.49,YE,1686578984
284,nova sintra,14.8667,-24.7167,295.81,79,43,7.2,CV,1686578790
285,carahue,-38.7,-73.1667,277.82,86,15,0.91,CL,1686578985
286,tshikapa,-6.4167,20.8,308.12,25,99,0.34,CD,1686578985
287,northam,51.0333,-4.2167,292.4,87,85,3.55,GB,1686578986
288,tamandare,-8.7597,-35.1047,301.3,67,16,4.14,BR,1686578986
289,sabzevar,36.2126,57.6819,308.75,14,40,7.2,IR,1686578780
290,ghadamis,30.1337,9.5007,311.38,13,0,4.14,LY,1686578986
291,sal rei,16.1833,-22.9167,302.26,65,40,9.77,CV,1686578721
292,guerrero negro,27.9769,-114.0611,289.63,83,3,5.98,MX,1686578987
293,forster,-32.1667,152.5167,283.87,100,43,2.52,AU,1686578987
294,dem'yanovo,60.3511,47.0842,291.77,42,63,2.32,RU,1686578988
295,sherwood park,53.5168,-113.3187,292.03,74,1,1.34,CA,1686578861
296,papao,-17.75,-149.55,295.97,67,30,8.2,PF,1686578988
297,burutu,5.3509,5.5076,299.52,81,100,2.9,NG,1686578989
298,sisimiut,66.9395,-53.6735,273.67,94,81,11.4,GL,1686578989
299,new ulm,44.3125,-94.4605,292.74,48,0,6.17,US,1686578862
300,motueka,-41.1333,173.0167,282.09,86,0,1.83,NZ,1686578720
301,keflavik,64.0049,-22.5624,282.39,71,75,4.63,IS,1686578768
302,antigonish,45.6169,-61.9986,296.01,66,6,0.89,CA,1686578990
303,nemuro,43.3236,145.575,284.48,99,86,3.8,JP,1686578991
304,newberry,34.2746,-81.6187,296.96,90,87,5.25,US,1686578991
305,daru,-9.0763,143.2092,298.71,86,100,5.92,PG,1686578991
306,tamale,9.4008,-0.8393,303.78,52,100,3.6,GH,1686578991
307,souillac,-20.5167,57.5167,297.67,76,40,1.78,MU,1686578992
308,veraval,20.9,70.3667,301.72,84,100,12.76,IN,1686578992
309,taro,-8.3862,115.28,296.15,94,71,1.65,ID,1686578992
310,dalnerechensk,45.9339,133.7225,288.46,92,95,1.56,RU,1686578993
311,kirensk,57.7853,108.1119,281.02,69,3,2.53,RU,1686578993
312,conde,-7.2597,-34.9075,298.85,89,75,3.6,BR,1686578924
313,aldan,58.6031,125.3894,278.54,97,100,3.55,RU,1686578994
314,road town,18.4167,-64.6167,305.2,62,40,6.17,VG,1686578994
315,rock forest,45.3702,-71.99,293.36,67,100,2.27,CA,1686578994
316,weno,7.4515,151.8468,301.12,89,100,3.09,FM,1686578995
317,timbuktu,16.7735,-3.0074,312.46,25,8,2.52,ML,1686578995
318,paris,48.8534,2.3488,301.69,68,0,3.6,FR,1686578911
319,raahe,64.6833,24.4833,293.2,63,100,10.84,FI,1686578996
320,bikenibeu village,1.3673,173.1241,301.13,83,20,1.54,KI,1686578996
321,dolyna,48.9733,24.0094,282.7,92,100,2.02,UA,1686578996
322,san patricio,28.017,-97.5169,303.08,76,12,5.75,US,1686578997
323,manicore,-5.8092,-61.3003,304.07,61,25,1.33,BR,1686578997
324,zadar,44.1197,15.2422,300.49,39,20,4.63,HR,1686578997
325,mangrol,21.1167,70.1167,301.56,85,100,13.75,IN,1686578961
326,tukrah,32.5341,20.5791,298.12,58,0,5.81,LY,1686578966
327,st. john's,47.5649,-52.7093,279.8,94,100,3.13,CA,1686578772
328,luderitz,-26.6481,15.1594,290.74,68,0,5.95,NA,1686578998
329,keren,15.7778,38.4581,293.85,75,98,4.31,ER,1686578999
330,vernon,50.2581,-119.2691,293.67,63,0,1.79,CA,1686578999
331,palikir - national government center,6.9248,158.1611,301.56,79,100,4.63,FM,1686578794
332,lihue,21.9789,-159.3672,296.13,88,75,4.8,US,1686578999
333,male,4.1748,73.5089,303.12,84,75,5.66,MV,1686578991
334,roma,43.2128,-75.4557,298.0,67,75,7.2,US,1686578765
335,elliot,-31.3333,27.85,285.5,45,56,6.64,ZA,1686579000
336,oranjemund,-28.55,16.4333,289.31,72,17,3.6,NA,1686579001
337,pacasmayo,-7.4006,-79.5714,295.55,78,32,6.04,PE,1686579001
338,tazacorte,28.629,-17.9293,297.68,75,75,4.12,ES,1686579002
339,sydney,-33.8679,151.2073,288.76,84,100,1.54,AU,1686578978
340,takab,36.4009,47.1133,299.91,19,6,4.39,IR,1686579003
341,ginebra,46.2022,6.1457,301.61,31,20,3.09,CH,1686578824
342,halifax,44.6453,-63.5724,298.53,47,40,4.63,CA,1686578140
343,noyabrsk,63.1994,75.4507,275.53,96,100,8.65,RU,1686579004
344,sparti,37.0733,22.4297,296.82,74,91,0.8,GR,1686579004
345,castillos,-34.1667,-53.8333,283.72,46,0,5.69,UY,1686579005
346,bubaque,11.2833,-15.8333,300.74,79,100,4.94,GW,1686579005
347,tamanrasset,22.785,5.5228,310.1,12,41,1.03,DZ,1686578813
348,obo,5.3998,26.4869,306.63,36,39,1.72,CF,1686579006
349,kasaragod,12.5,75.0,301.2,76,35,1.86,IN,1686579006
350,gubkinskiy,64.434,76.5026,276.22,94,100,9.67,RU,1686579007
351,timiryazevskoye,56.49,84.8769,286.4,90,100,3.01,RU,1686579007
352,winnemucca,40.973,-117.7357,286.18,88,100,1.54,US,1686579008
353,san matias,-16.3667,-58.4,289.99,90,100,3.31,BO,1686579008
354,baishan,41.9431,126.4286,285.44,91,100,1.35,CN,1686579008
355,el-tor,28.2364,33.6254,312.23,19,0,6.69,EG,1686579009
356,timaru,-44.4,171.25,279.81,72,33,2.61,NZ,1686579009
357,axim,4.8699,-2.2405,301.12,63,100,3.84,GH,1686579009
358,dymer,50.7865,30.3026,287.53,81,100,6.05,UA,1686578922
359,aberdeen,57.1437,-2.0981,298.51,77,93,3.6,GB,1686579010
360,quelimane,-17.8786,36.8883,300.39,55,0,2.83,MZ,1686579011
361,oltinko'l,40.8011,72.1634,309.31,21,84,4.69,UZ,1686579011
362,gwadar,25.1216,62.3254,303.43,71,12,3.02,PK,1686579011
363,la libertad,-2.2333,-80.9,299.96,89,20,6.17,EC,1686579012
364,enewetak,11.3474,162.3373,301.12,79,99,8.13,MH,1686578817
365,sao vicente,-23.9631,-46.3919,301.63,73,20,1.34,BR,1686578789
366,laguna,38.421,-121.4238,289.14,80,20,6.69,US,1686579013
367,kondopoga,62.2057,34.2614,295.97,30,44,4.96,RU,1686579013
368,kitami,43.8031,143.8908,288.22,94,43,3.55,JP,1686579013
369,bria,6.5423,21.9863,302.14,57,99,2.07,CF,1686579014
370,prigen,-7.6833,112.6167,295.89,92,51,1.06,ID,1686579014
371,ugoofaaru,5.6667,73.0,302.03,78,100,6.78,MV,1686579014
372,lachi,33.3833,71.3386,312.34,16,0,4.9,PK,1686579015
373,bontang,0.1333,117.5,299.49,86,15,2.3,ID,1686579015
374,stanisic,45.94,19.1653,292.76,70,100,4.43,RS,1686579015
375,jayapura,-2.5333,140.7,298.81,90,100,2.03,ID,1686579016
376,nabire,-3.3667,135.4833,298.13,94,100,1.02,ID,1686579016
377,port lincoln,-34.7333,135.8667,286.73,69,73,9.28,AU,1686579016
378,las lomitas,-24.7096,-60.593,284.57,45,100,3.43,AR,1686579017
379,polyarnyy,69.1989,33.4478,290.54,37,100,6.24,RU,1686578734
380,punta arenas,-53.15,-70.9167,279.16,81,20,9.77,CL,1686578706
381,kawm hamadah,30.761,30.6973,306.78,26,7,6.56,EG,1686579018
382,lhuentse,27.6679,91.1839,293.7,97,58,0.73,BT,1686579018
383,korla,41.7597,86.1469,306.99,14,92,12.56,CN,1686579018
384,aleksandrovsk-sakhalinskiy,50.8975,142.1561,280.54,97,56,1.25,RU,1686579019
385,tofol,5.3248,163.0078,301.92,77,100,8.41,FM,1686579019
386,phalaborwa,-23.943,31.1411,302.72,18,0,3.14,ZA,1686579019
387,neiafu,-18.65,-173.9833,296.53,88,75,0.0,TO,1686579020
388,siracusa,37.0881,15.2792,299.44,74,26,5.17,IT,1686578907
389,ueckermunde,53.7379,14.0447,299.81,37,0,5.66,DE,1686579020
390,greymouth,-42.4667,171.2,280.78,88,78,2.29,NZ,1686579021
391,salahonda,2.1019,-78.7217,300.52,79,97,0.09,CO,1686579021
392,quebrangulo,-9.3189,-36.4711,299.73,69,43,5.46,BR,1686579021
393,waingapu,-9.6567,120.2641,297.41,80,40,6.32,ID,1686578809
394,prado,-17.3411,-39.2208,299.68,66,1,3.51,BR,1686579022
395,mar del plata,-38.0023,-57.5575,284.31,77,99,2.24,AR,1686579001
396,ambodifotatra,-16.9833,49.85,297.62,77,1,3.22,MG,1686579022
397,bengkulu,-3.8004,102.2655,299.12,89,8,3.75,ID,1686579023
398,puerto carreno,6.189,-67.4859,301.38,75,93,0.9,CO,1686579023
399,lakhnadon,22.6,79.6,309.8,23,36,3.59,IN,1686579024
400,wuhai,39.6647,106.8122,296.26,26,27,6.03,CN,1686579024
401,amarwara,22.3,79.1667,305.77,34,75,5.35,IN,1686579024
402,ijui,-28.3878,-53.9147,282.32,50,87,5.69,BR,1686579025
403,bulgan,48.8125,103.5347,291.71,56,77,1.41,MN,1686579025
404,mora,11.0461,14.1401,305.56,42,100,0.92,CM,1686579025
405,goderich,43.7501,-81.7165,284.21,98,100,8.89,CA,1686579026
406,serpa,37.9458,-7.5975,299.9,35,100,5.29,PT,1686579026
407,nyrob,60.733,56.7202,285.36,48,100,3.41,RU,1686579027
408,suva,-18.1416,178.4415,294.86,94,75,2.06,FJ,1686579027
409,shakiso,5.75,38.9167,293.45,80,70,2.88,ET,1686578837
410,kourou,5.1552,-52.6478,302.18,71,28,3.67,GF,1686579028
411,sao felix do xingu,-6.6447,-51.995,304.95,47,20,1.66,BR,1686579028
412,sambava,-14.2667,50.1667,297.76,71,8,3.41,MG,1686579029
413,berezovyy,51.6667,135.7,284.71,84,87,1.24,RU,1686579029
414,menongue,-14.6585,17.691,303.19,13,2,1.61,AO,1686579029
415,amga,60.8953,131.9608,283.52,72,100,4.12,RU,1686579030
416,ust'-barguzin,53.45,108.9833,282.13,94,74,1.17,RU,1686579030
417,ixtapa,20.7,-105.2,301.05,69,20,1.54,MX,1686579031
418,kerikeri,-35.2268,173.9474,282.54,94,8,2.61,NZ,1686579031
419,turpan,42.9333,89.1667,311.3,17,98,8.19,CN,1686579032
420,mbanza kongo,-6.267,14.2401,300.56,63,92,1.06,AO,1686579032
421,ust'-uda,54.1742,103.0304,288.83,74,100,1.44,RU,1686579032
422,opuwo,-18.0607,13.84,300.18,9,53,2.82,NA,1686579033
423,kabalo,-6.05,26.9167,308.33,22,60,0.85,CD,1686579033
424,cherdyn',60.403,56.4787,285.64,45,100,3.52,RU,1686579033
425,ta`u,-14.2336,-169.5144,299.98,81,12,8.11,AS,1686579034
426,puerto madero,14.7208,-92.4215,302.26,100,0,1.03,MX,1686579034
427,chonchi,-42.6128,-73.8092,279.88,88,12,1.83,CL,1686578809
428,santiago de cao,-7.9589,-79.2392,295.22,83,37,4.63,PE,1686579035
429,vadso,70.0744,29.7487,292.64,44,0,3.09,NO,1686579035
430,kaka,37.3482,59.6143,309.35,10,1,5.84,TM,1686579036
431,tutoia,-2.7619,-42.2744,302.94,63,2,2.95,BR,1686578819
432,iwon-up,40.3231,128.6553,288.6,93,99,1.26,KP,1686579036
433,yonggang-up,38.8561,125.4244,290.19,87,100,1.37,KP,1686579037
434,pontes e lacerda,-15.2261,-59.3353,291.53,96,100,1.76,BR,1686579037
435,sumbawa besar,-8.5,117.4333,294.98,89,7,2.73,ID,1686579037
436,xichang,27.8964,102.2634,288.32,89,100,0.41,CN,1686579038
437,severo-yeniseyskiy,60.3725,93.0408,286.41,51,0,2.37,RU,1686578819
438,hailar,49.2,119.7,292.34,54,22,2.03,CN,1686579038
439,sonoita,31.85,-112.8333,290.82,70,0,3.99,MX,1686579039
440,sogndal,61.2283,7.1003,293.36,45,75,1.54,NO,1686579039
441,dryden,49.7833,-92.7503,292.16,42,0,1.76,CA,1686579039
442,vygonichi,53.0985,34.0673,293.21,32,0,6.0,RU,1686579040
443,kiunga,-6.1219,141.2906,296.05,99,100,1.22,PG,1686578757
444,belmonte,-15.8631,-38.8828,300.19,63,6,3.02,BR,1686579040
445,hobyo,5.3505,48.5268,300.93,74,100,13.06,SO,1686579041
446,el burgo de osma,41.5862,-3.0652,295.59,43,80,3.24,ES,1686579041
447,buinsk,54.95,48.2833,287.94,59,100,4.11,RU,1686579041
448,carnarvon,-24.8667,113.6333,291.09,40,0,7.92,AU,1686578816
449,bure,10.7,37.0667,294.49,64,65,2.17,ET,1686579042
450,kodinsk,58.6881,99.1844,286.16,54,100,1.99,RU,1686579042
451,wickenburg,33.9686,-112.7296,294.92,57,0,2.75,US,1686579043
452,lucapa,-8.4192,20.7447,306.17,18,81,1.61,AO,1686579043
453,brookings,44.3114,-96.7984,292.07,66,0,2.68,US,1686578799
454,edd,13.9297,41.6925,307.42,56,27,9.2,ER,1686579044
455,playa blanca,28.8643,-13.8281,298.26,81,21,5.63,ES,1686579044
456,berdigestyakh,62.0989,126.6992,279.47,52,95,4.53,RU,1686579044
457,miahuatlan,18.5667,-97.4333,294.05,59,73,0.28,MX,1686579045
458,awjilah,29.1081,21.2869,313.91,12,0,9.39,LY,1686579045
459,muroto-misakicho,33.2833,134.15,294.27,88,100,1.84,JP,1686579045
460,palmer,42.1584,-72.3287,297.88,67,100,1.34,US,1686579046
461,tsiombe,-25.3,45.4833,294.47,77,15,5.03,MG,1686579046
462,tanda,26.55,82.65,313.01,19,0,2.69,IN,1686579046
463,chadron,42.8294,-102.9999,288.69,66,100,4.12,US,1686579047
464,gustavsberg,59.3268,18.3898,296.07,43,2,5.42,SE,1686579047
465,viedma,-40.8135,-62.9967,283.11,47,6,6.33,AR,1686579047
466,pilar do sul,-23.8131,-47.7164,294.97,60,10,1.39,BR,1686579048
467,joal-fadiout,14.1667,-16.8333,301.73,69,53,5.79,SN,1686579048
468,island harbour,50.724,-1.2758,298.19,78,27,3.04,GB,1686579048
469,monticello,45.3055,-93.7941,293.33,56,20,4.63,US,1686579048
470,dingzhou,38.5131,114.9956,298.29,30,17,2.76,CN,1686579049
471,el bayadh,33.6832,1.0193,305.22,15,1,9.99,DZ,1686579049
472,grobina,56.5352,21.1678,296.03,25,0,4.12,LV,1686579049
473,sanga-sanga,5.0725,119.7853,301.53,76,36,2.44,PH,1686579049
474,dakhla,23.6848,-15.958,296.11,72,0,6.94,EH,1686579050
475,novodvinsk,64.4165,40.8122,296.07,35,47,4.77,RU,1686579050
476,edirne,41.6772,26.556,299.15,52,100,5.21,TR,1686579050
477,yangambi,0.8102,24.4336,302.42,57,100,1.0,CD,1686579051
478,marka,1.7159,44.7717,300.45,73,20,9.44,SO,1686579051
479,nea michaniona,40.4649,22.8613,301.03,62,20,2.57,GR,1686579051
480,siderno,38.2779,16.302,295.0,65,100,3.56,IT,1686579052
481,revda,56.801,59.9303,287.55,38,100,3.23,RU,1686579019
482,pocora,10.1718,-83.6044,302.95,72,70,0.79,CR,1686579052
483,ahar,38.4774,47.0699,299.62,40,82,4.9,IR,1686579052
484,buka,40.8108,69.1986,304.57,28,93,7.2,UZ,1686579053
485,la ronge,55.1001,-105.2842,293.27,73,100,3.09,CA,1686579053
486,matamata,-37.8106,175.7624,282.76,95,0,1.28,NZ,1686579053
487,kavalerovo,44.2661,135.0572,288.36,100,100,0.6,RU,1686579053
488,thunder bay,48.4001,-89.3168,287.05,48,88,2.3,CA,1686579054
489,sarupathar,26.1984,93.8094,298.89,94,75,0.74,IN,1686579054
490,magadan,59.5667,150.8,278.78,95,96,2.12,RU,1686579055
491,kloulklubed,7.0419,134.2556,299.43,80,100,5.33,PW,1686579055
492,cabagan,17.4333,121.75,300.14,74,100,2.3,PH,1686579056
493,aykhal,66.0,111.5,282.28,50,11,3.3,RU,1686578759
494,tabou,4.423,-7.3528,300.68,68,23,4.77,CI,1686579056
495,ji'an,27.1172,114.9793,299.58,69,100,2.17,CN,1686579056
496,farafangana,-22.8167,47.8333,295.1,84,1,2.26,MG,1686579057
497,sironko,1.2313,34.2477,297.58,76,100,1.79,UG,1686579057
498,safford,32.834,-109.7076,294.32,30,0,2.06,US,1686579005
499,ilebo,-4.3167,20.5833,307.65,34,92,0.88,CD,1686579058
500,roswell,34.0232,-84.3616,294.74,94,100,3.09,US,1686578828
501,bandarbeyla,9.4942,50.8122,304.77,53,100,12.41,SO,1686579058
502,tha maka,13.9,99.7667,300.54,73,100,2.63,TH,1686579059
503,avsyunino,55.5652,39.1232,291.39,35,3,5.37,RU,1686579059
504,sokoni,-6.4333,39.55,299.97,70,15,6.52,TZ,1686579058
505,bridlington,54.0831,-0.1919,297.53,81,50,4.47,GB,1686579059
506,port hueneme,34.1478,-119.1951,290.35,90,100,0.0,US,1686579060
507,talara,-4.5772,-81.2719,299.57,65,0,10.29,PE,1686579060
508,huanggang,23.677,116.9996,299.04,92,98,3.25,CN,1686579060
509,imbituba,-28.24,-48.6703,288.07,88,100,4.94,BR,1686579061
510,tres lagoas,-20.7511,-51.6783,299.85,44,64,2.68,BR,1686578896
511,arno,60.1167,18.6333,286.36,34,7,6.54,SE,1686579061
512,pyu,18.4833,96.4333,298.03,92,33,2.54,MM,1686579062
513,taki,22.5861,88.9214,301.12,79,94,4.06,IN,1686579062
514,taiping,4.85,100.7333,301.94,93,92,1.15,MY,1686579062
515,hami,42.8,93.45,308.25,15,82,9.42,CN,1686578801
516,taksimo,56.3444,114.8794,283.67,78,73,1.62,RU,1686579063
517,kwang binh,17.4833,106.6,301.87,75,38,3.79,VN,1686579063
518,la romana,18.4273,-68.9728,305.35,58,40,3.09,DO,1686579064
519,norfolk,42.1668,-71.2495,296.84,79,0,2.06,US,1686578999
520,klyuchi,52.2667,79.1667,295.96,49,49,5.98,RU,1686579065
521,trakai,54.6333,24.9333,293.2,35,100,4.41,LT,1686579065
522,steinkjer,64.193,11.3851,291.67,45,3,6.15,NO,1686579065
523,murun-kuren,49.6342,100.1625,288.45,87,100,3.66,MN,1686579066
524,nuuk,64.1835,-51.7216,276.97,87,75,12.52,GL,1686578843
525,voiron,45.3639,5.5921,302.54,57,68,1.26,FR,1686579066
526,lata,40.1629,-8.3327,299.3,52,99,4.77,PT,1686579066
527,powell river,49.8496,-124.5361,289.15,74,58,4.3,CA,1686579067
528,samarinda,-0.5,117.15,297.01,98,13,0.84,ID,1686578944
529,nizhniy ingash,56.2,96.53,285.93,57,100,1.07,RU,1686579067
530,gangapur,26.4833,76.7167,313.56,19,20,5.34,IN,1686579068
531,mandeville,18.0417,-77.5071,298.8,66,68,5.11,JM,1686579068
532,shimoda,34.6667,138.95,294.32,94,87,5.28,JP,1686579068
533,strathmore,51.0501,-113.3852,291.96,72,100,2.79,CA,1686578876
534,igra,57.5558,53.0547,288.52,40,31,3.0,RU,1686579069
535,port moresby,-9.4431,147.1797,298.83,89,40,5.14,PG,1686579069
536,carauari,-4.8828,-66.8958,301.37,75,31,1.08,BR,1686579069
537,khandyga,62.6667,135.6,284.89,55,100,2.87,RU,1686579070
538,urangan,-25.3,152.9,291.61,83,0,3.3,AU,1686579070
539,sena madureira,-9.0656,-68.6569,301.91,68,34,1.14,BR,1686579070
540,nezhinka,51.7676,55.3694,298.24,33,75,11.18,RU,1686579071
541,haiku-pauwela,20.9219,-156.3051,297.06,72,0,5.14,US,1686579071
542,ciudad lazaro cardenas,17.9583,-102.2,300.32,70,12,1.66,MX,1686579071
543,jardim,-21.4803,-56.1381,286.63,96,100,2.88,BR,1686578962
544,ati,13.2154,18.3353,309.5,31,92,1.19,TD,1686579072
545,lompoc,34.6391,-120.4579,288.23,86,100,1.79,US,1686578752
546,fortuna,40.5982,-124.1573,285.57,94,43,0.35,US,1686579072
547,gebeit,21.0667,36.3167,312.9,12,5,6.22,SD,1686579073
548,coquimbo,-29.9533,-71.3436,283.0,81,20,2.06,CL,1686578596
549,rozhyshche,50.9154,25.2691,283.22,94,100,4.58,UA,1686579074
550,tralee,52.2704,-9.7026,293.29,68,100,2.57,IE,1686579074
551,annaba,36.9,7.7667,298.13,69,20,5.66,DZ,1686579074
552,tippi,7.2,35.45,297.12,79,100,0.41,ET,1686579075
553,merizo village,13.2658,144.6691,301.46,91,100,6.01,GU,1686579075
554,boguchany,58.3814,97.4531,287.11,51,100,2.31,RU,1686579075
555,san ignacio,17.1561,-89.0714,302.23,79,0,3.09,BZ,1686579076
556,gaspe,48.8334,-64.4819,296.27,56,20,3.6,CA,1686579076
557,churapcha,62.0025,132.4325,282.35,52,100,5.87,RU,1686579077
558,burang,30.25,81.1667,281.22,78,65,2.48,CN,1686579077
559,dapaong,10.8639,0.205,303.68,51,98,4.28,TG,1686579077
560,harar,9.3094,42.1258,296.89,54,100,2.71,ET,1686579078
561,marlow,51.5693,-0.7742,303.16,54,84,2.68,GB,1686579078
562,kagoshima,31.5602,130.5581,296.5,95,67,1.32,JP,1686579078
563,nyurba,63.2842,118.3319,279.12,64,3,0.12,RU,1686579079
564,kasane,-17.8167,25.15,304.12,15,8,2.85,BW,1686579079
565,taoudenni,22.6783,-3.9836,315.75,7,4,3.75,ML,1686579079
566,prince albert,53.2001,-105.7677,293.12,68,75,4.12,CA,1686579080
567,beykonak,36.3257,30.303,296.39,79,97,1.99,TR,1686579080
568,bafq,31.6128,55.4107,310.28,13,0,3.81,IR,1686579080
569,torbat-e jam,35.244,60.6225,305.66,13,1,9.23,IR,1686579081
570,sciacca,37.5082,13.0881,300.18,59,5,7.68,IT,1686579081
571,miles city,46.4083,-105.8406,289.69,72,0,0.0,US,1686578972
572,pandan,14.0453,124.1694,301.17,80,98,3.52,PH,1686579081
573,harstad,68.799,16.5293,285.46,75,100,8.49,NO,1686579082
